# Name | Longitude | Latitude | Width | Length | Height | R | G | B
北京大学图书馆|116.30393853823529|39.99052945|60.0|60.0|40.0|0.7|0.5|0.4
理科五号楼|116.30856646153846|39.98835173846154|45.0|65.0|35.0|0.6|0.6|0.7
综合科研1号楼（逸夫楼）|116.30087648888889|39.98895822222222|50.0|70.0|35.0|0.6|0.6|0.7
58号楼|116.30341526666668|39.98787686190476|20.0|50.0|24.0|0.7|0.6|0.5
物理学院楼|116.31053770666668|39.99156691333334|55.0|75.0|30.0|0.6|0.6|0.7
微纳电子大厦|116.30810426000001|39.99329408|40.0|60.0|45.0|0.5|0.6|0.8
环境科学与工程学院（刘水楼）|116.30865943500001|39.993248315|40.0|50.0|30.0|0.6|0.7|0.6
理科三号楼（曙东楼）|116.30857021578947|39.990326878947364|45.0|60.0|35.0|0.6|0.6|0.7
21楼|116.30490656666666|39.98632713333333|20.0|55.0|24.0|0.7|0.6|0.5
19楼|116.30488073333333|39.986860766666666|20.0|55.0|24.0|0.7|0.6|0.5
22楼|116.30497436666667|39.985904233333336|20.0|55.0|24.0|0.7|0.6|0.5
20楼|116.30465548333332|39.9865615|20.0|55.0|24.0|0.7|0.6|0.5
23楼|116.30470091666666|39.98562616666667|20.0|55.0|24.0|0.7|0.6|0.5
理科一号楼|116.30699334871795|39.98945077179487|50.0|70.0|35.0|0.6|0.6|0.7
生命科学学院大楼|116.30846319333334|39.99112932|50.0|65.0|30.0|0.6|0.7|0.6
北京大学校医院|116.30799016567164|39.99541348358209|45.0|60.0|20.0|0.8|0.8|0.8
光华管理学院1号楼|116.30570894|39.989544144|45.0|60.0|35.0|0.7|0.5|0.5
吕志和楼|116.30695901428571|39.991218278571424|40.0|50.0|25.0|0.7|0.6|0.6
顾颉刚故居|116.30832958|39.99429616|15.0|20.0|8.0|0.5|0.4|0.3
全斋|116.30351848000001|39.994884|15.0|40.0|12.0|0.6|0.5|0.4
教育基金会|116.30426812|39.99556302|25.0|35.0|15.0|0.6|0.5|0.5
理科二号楼（逸夫苑）|116.30855091111113|39.98949135|50.0|70.0|35.0|0.6|0.6|0.7
新奥工学大楼|116.3110155625|39.99327723125|50.0|65.0|40.0|0.5|0.6|0.7
邱德拔体育馆|116.30894751428572|39.9873434|75.0|85.0|30.0|0.7|0.4|0.3
遥感楼|116.30648273333333|39.99193344444444|30.0|45.0|25.0|0.6|0.6|0.7
政府管理学院（廖凯原楼）|116.30843425454546|39.994470445454546|45.0|60.0|35.0|0.7|0.6|0.6
恩佑寺山门|116.29835175999999|39.9920034|10.0|15.0|12.0|0.6|0.4|0.3
百周年纪念讲堂|116.30448717142858|39.98854587857143|65.0|55.0|30.0|0.8|0.4|0.4
艺园餐厅|116.30077435999999|39.98715168|35.0|45.0|15.0|0.8|0.6|0.4
海淀游泳馆|116.29627195714285|39.98599757142857|40.0|60.0|18.0|0.4|0.6|0.7
西44楼|116.31060835999999|39.997010620000005|20.0|50.0|24.0|0.7|0.6|0.5
19公寓|116.31142107999999|39.996969|20.0|50.0|24.0|0.7|0.6|0.5
15公寓|116.31249166|39.9977267|20.0|50.0|24.0|0.7|0.6|0.5
17公寓|116.31140135999999|39.997672460000004|20.0|50.0|24.0|0.7|0.6|0.5
18公寓|116.3114112|39.9973081|20.0|50.0|24.0|0.7|0.6|0.5
西43楼|116.31058762|39.99734448|20.0|50.0|24.0|0.7|0.6|0.5
西8楼|116.31224635999999|39.99702064|20.0|50.0|24.0|0.7|0.6|0.5
西42楼|116.31052898|39.9976645|20.0|50.0|24.0|0.7|0.6|0.5
第一教学楼|116.30433764285713|39.991547000000004|30.0|50.0|20.0|0.6|0.6|0.6
第二体育馆|116.30204828000001|39.98949948|35.0|50.0|15.0|0.7|0.5|0.4
北大西门|116.29859268888887|39.99329597777778|10.0|25.0|12.0|0.8|0.3|0.3
化学北楼|116.29976630000002|39.99290828|30.0|45.0|25.0|0.6|0.6|0.7
化学南楼|116.29977632|39.99234048|30.0|45.0|25.0|0.6|0.6|0.7
校史馆|116.30005644|39.992025319999996|25.0|40.0|15.0|0.7|0.5|0.4
档案馆|116.30038724|39.99262842|25.0|35.0|20.0|0.6|0.6|0.6
星海体育场|116.29606319|39.98715868|80.0|120.0|5.0|0.4|0.6|0.4
资源宾馆|116.29996107142857|39.98577137142858|40.0|55.0|30.0|0.6|0.6|0.6
35楼|116.30287349|39.98641654|20.0|50.0|24.0|0.7|0.6|0.5
32楼|116.30383101|39.98644143|20.0|50.0|24.0|0.7|0.6|0.5
44楼|116.30075802857142|39.98668222857143|20.0|50.0|24.0|0.7|0.6|0.5
王克桢楼|116.30891843333332|39.98600262222222|35.0|45.0|60.0|0.5|0.5|0.6
第四教学楼|116.30808725000001|39.987998016666666|35.0|55.0|25.0|0.6|0.6|0.6
第三教学楼（刘卿楼）|116.30776895|39.9877428125|35.0|55.0|25.0|0.6|0.6|0.6
第二教学楼（李兆基楼）|116.30731398333334|39.98827980833333|40.0|60.0|25.0|0.6|0.6|0.6
博雅塔|116.30578297777778|39.99263678888889|30.0|30.0|80.0|0.8|0.8|0.8
法学院（陈明楼）|116.30779303333333|39.994161399999996|30.0|45.0|25.0|0.6|0.5|0.6
光华管理学院|116.30716855714286|39.994331502040815|50.0|70.0|35.0|0.7|0.5|0.5
光华管理学院2号楼|116.30768857058824|39.99477275882353|45.0|60.0|35.0|0.7|0.5|0.5
法学院（凯原楼）|116.30744974|39.99324992|40.0|55.0|30.0|0.6|0.5|0.6
外文楼|116.29976858|39.99372396|25.0|45.0|18.0|0.6|0.5|0.4
办公楼（贝公楼）|116.3004074923077|39.99334340769231|35.0|55.0|22.0|0.7|0.6|0.5
赛克勒考古与艺术博物馆|116.29977214444443|39.994435100000004|35.0|50.0|15.0|0.7|0.5|0.4
民主楼|116.30037606|39.994009899999995|20.0|35.0|15.0|0.6|0.5|0.4
德斋|116.300943|39.994157683333334|15.0|30.0|12.0|0.6|0.5|0.4
才斋|116.30158128333333|39.994086616666664|15.0|30.0|12.0|0.6|0.5|0.4
审计室|116.30124454285715|39.99430701428571|15.0|25.0|12.0|0.6|0.5|0.4
均斋|116.30222149999999|39.99420025|15.0|30.0|12.0|0.6|0.5|0.4
备斋|116.30286110000002|39.99420785|15.0|30.0|12.0|0.6|0.5|0.4
人事部|116.3025291142857|39.994336999999994|15.0|25.0|12.0|0.6|0.5|0.4
第一体育馆|116.30545826|39.993932259999994|40.0|60.0|15.0|0.7|0.5|0.4
勺园4号楼|116.29940064545454|39.989904381818185|20.0|45.0|20.0|0.6|0.6|0.5
勺园5号楼|116.29923654|39.99084054|20.0|45.0|20.0|0.6|0.6|0.5
北京大学国际关系学院|116.30061296785713|39.99048370714286|40.0|55.0|25.0|0.6|0.6|0.6
勺园6号楼|116.29983801|39.989625180000004|20.0|45.0|20.0|0.6|0.6|0.5
勺园7号楼|116.300003475|39.98915928|20.0|45.0|20.0|0.6|0.6|0.5
勺园8号楼|116.29944100555556|39.98933207777778|20.0|45.0|20.0|0.6|0.6|0.5
勺园9号楼|116.29930174615384|39.9888401923077|20.0|45.0|20.0|0.6|0.6|0.5
学五食堂|116.30086894000002|39.98767074|35.0|50.0|15.0|0.8|0.6|0.4
31楼|116.30256864285715|39.98708958571429|20.0|50.0|24.0|0.7|0.6|0.5
29楼|116.30322248333333|39.9873461|20.0|50.0|24.0|0.7|0.6|0.5
30楼|116.30325138333335|39.98684748333333|20.0|50.0|24.0|0.7|0.6|0.5
28楼|116.30405965|39.987134000000005|20.0|50.0|24.0|0.7|0.6|0.5
农园餐厅|116.30609624285715|39.98752677142857|45.0|60.0|18.0|0.8|0.6|0.4
教育学院|116.30555932|39.987729200000004|30.0|45.0|25.0|0.6|0.6|0.6
对外汉语教育学院及信息管理系（方李邦琴楼）|116.30567902142857|39.98665795714286|35.0|50.0|25.0|0.6|0.6|0.6
新闻与传播学院（蒙民伟楼）|116.30574911428572|39.98579327142857|30.0|45.0|22.0|0.6|0.6|0.6
五四体育中心|116.30621259|39.98623334|60.0|80.0|20.0|0.5|0.6|0.7
海淀体育馆|116.29768363333334|39.988439774999996|50.0|70.0|25.0|0.5|0.6|0.7
未来科技大厦|116.29848618|39.98592991333333|40.0|55.0|50.0|0.5|0.5|0.6
方正大厦|116.3104925375|39.989922379166664|45.0|60.0|55.0|0.5|0.5|0.6
45甲楼|116.2996177181818|39.988193700000004|20.0|45.0|24.0|0.7|0.6|0.5
45乙楼|116.29972399411766|39.9885375|20.0|45.0|24.0|0.7|0.6|0.5
45楼|116.29965148888888|39.987833011111114|20.0|55.0|24.0|0.7|0.6|0.5
岛厅|116.30352024444444|39.993402044444444|15.0|20.0|10.0|0.6|0.5|0.4
北阁|116.30141472|39.99179476|15.0|15.0|18.0|0.7|0.5|0.4
南阁|116.30142754|39.99146296|15.0|15.0|18.0|0.7|0.5|0.4
临湖轩|116.30301847272727|39.99226177272727|20.0|35.0|10.0|0.6|0.5|0.4
俄文楼|116.30259194|39.99165042|25.0|40.0|15.0|0.6|0.5|0.4
哲学楼|116.30419623125|39.98965034375|30.0|45.0|20.0|0.6|0.6|0.6
一院|116.30139952727272|39.99087227272727|15.0|30.0|12.0|0.6|0.5|0.4
二院|116.30142117|39.99038591|15.0|30.0|12.0|0.6|0.5|0.4
三院|116.30142743636362|39.98990134545455|15.0|30.0|12.0|0.6|0.5|0.4
四院|116.30275362|39.98993107|15.0|30.0|12.0|0.6|0.5|0.4
五院|116.30269940999999|39.99040493|15.0|30.0|12.0|0.6|0.5|0.4
六院|116.30268778|39.99088168|15.0|30.0|12.0|0.6|0.5|0.4
北京大学化学学院A区|116.31159168571428|39.9894625|35.0|50.0|30.0|0.6|0.6|0.7
北京大学化学学院B区|116.31118710000001|39.9898464|35.0|50.0|30.0|0.6|0.6|0.7
北京大学化学学院C区|116.31167697999999|39.99018443999999|35.0|50.0|30.0|0.6|0.6|0.7
北京大学化学学院D区|116.31133776000001|39.990464020000005|35.0|50.0|30.0|0.6|0.6|0.7
文史楼|116.30567278571428|39.990904785714285|30.0|50.0|22.0|0.6|0.6|0.6
学一食堂|116.30169664285714|39.986257928571426|35.0|45.0|15.0|0.8|0.6|0.4
北京大学燕东园34号楼|116.310373|39.9944896|20.0|45.0|18.0|0.6|0.6|0.5
北京大学-战略研究所|116.3103754|39.99414704|25.0|35.0|15.0|0.6|0.6|0.6
北京大学-燕东园小楼32号楼|116.31077424|39.99415054|15.0|25.0|12.0|0.6|0.6|0.5
北京大学-燕东园小楼31号楼|116.31110411428573|39.994092442857145|15.0|25.0|12.0|0.6|0.6|0.5
松林餐厅|116.30200688333333|39.986465933333335|25.0|35.0|12.0|0.8|0.6|0.4
餐饮综合楼（家园食堂）|116.30178069000002|39.9870349|50.0|60.0|25.0|0.8|0.6|0.4
43楼|116.30069392|39.986228340000004|20.0|50.0|24.0|0.7|0.6|0.5
理科教学楼（黄廷方楼）|116.30710668333333|39.99028755555556|45.0|65.0|30.0|0.6|0.6|0.6
英杰交流中心|116.30771306153846|39.98939210769231|40.0|60.0|20.0|0.7|0.6|0.6
地学楼|116.30568817142857|39.9904455|30.0|45.0|25.0|0.6|0.6|0.6
老化学楼|116.30570995000001|39.990061159999996|30.0|45.0|25.0|0.6|0.6|0.6
电化教学楼（智华楼）|116.30583169534883|39.988567153488376|35.0|50.0|25.0|0.6|0.6|0.6
老生物楼|116.30562323|39.99121571|30.0|45.0|25.0|0.6|0.6|0.6
体斋|116.30318838000001|39.99434618|15.0|35.0|12.0|0.6|0.5|0.4
勺园食堂|116.29953205454545|39.99041892727273|30.0|45.0|15.0|0.8|0.6|0.4
佟园餐厅（清真）|116.30068698|39.9897648|25.0|35.0|12.0|0.8|0.6|0.4
勺园1号楼|116.29986037142858|39.990100771428565|20.0|45.0|20.0|0.6|0.6|0.5
勺园3号楼|116.29982244285713|39.99074555714286|20.0|45.0|20.0|0.6|0.6|0.5
勺园2号楼|116.29979620588236|39.99043068823529|20.0|45.0|20.0|0.6|0.6|0.5
新太阳学生中心（16楼-18楼）|116.304781875|39.98761023|40.0|55.0|25.0|0.5|0.6|0.7
燕南食堂|116.30411047142857|39.98925472857143|30.0|40.0|15.0|0.8|0.6|0.4
伟利楼|116.30433928|39.992261459999995|25.0|35.0|20.0|0.6|0.6|0.6
健斋|116.30333123999999|39.99451494|15.0|35.0|12.0|0.6|0.5|0.4
阿卜杜勒·阿齐兹国王公共图书馆北京大学分馆（古籍图书馆）|116.3033211|39.991522833333335|35.0|45.0|20.0|0.7|0.5|0.4
生物标本馆|116.30549174285714|39.991607571428574|25.0|35.0|18.0|0.6|0.6|0.6
北大附中实验学校 阅览楼|116.29585634|39.99239218|30.0|45.0|20.0|0.6|0.6|0.6
方楼|116.306312|39.99231058|30.0|30.0|25.0|0.6|0.6|0.6
保护生物学楼|116.29981304|39.99577212|25.0|40.0|20.0|0.6|0.7|0.6
保护生物学新楼|116.29984099999999|39.995572422222224|30.0|45.0|22.0|0.6|0.7|0.6
生物技术楼|116.29971661666667|39.99526048333333|25.0|40.0|20.0|0.6|0.7|0.6
燕园大厦|116.30892345714285|39.9865236|35.0|50.0|45.0|0.5|0.5|0.6
经济学院（孝义金晖楼）|116.30675241111112|39.99556101851852|40.0|55.0|30.0|0.7|0.6|0.6
64号楼|116.29638462|39.992891279999995|20.0|45.0|18.0|0.7|0.6|0.5
65号楼|116.29742773333334|39.99291935555556|20.0|45.0|18.0|0.7|0.6|0.5
畅春园食堂|116.29769864545455|39.992806836363634|30.0|40.0|15.0|0.8|0.6|0.4
59号楼|116.29741912|39.99226571|20.0|45.0|18.0|0.7|0.6|0.5
58号楼|116.29749442222221|39.99192592222222|20.0|45.0|18.0|0.7|0.6|0.5
57号楼|116.29754092222223|39.991618433333336|20.0|45.0|18.0|0.7|0.6|0.5
61号楼|116.2963840875|39.9921947|20.0|45.0|18.0|0.7|0.6|0.5
62号楼|116.29648737142858|39.991875699999994|20.0|45.0|18.0|0.7|0.6|0.5
63号楼|116.29641976|39.99153562|20.0|45.0|18.0|0.7|0.6|0.5
60号楼|116.2964152|39.99251292857143|20.0|45.0|18.0|0.7|0.6|0.5
教学楼|116.29524471764705|39.991854100000005|30.0|55.0|20.0|0.6|0.6|0.6
综合科研2号楼|116.30109933333333|39.988159079999996|40.0|60.0|30.0|0.6|0.6|0.7
核磁中心|116.30154672222223|39.98848092222222|25.0|35.0|15.0|0.6|0.6|0.7
51号楼|116.30260944|39.98903934|20.0|45.0|15.0|0.7|0.6|0.5
52号楼|116.3029789|39.989021055555554|20.0|45.0|15.0|0.7|0.6|0.5
60号楼|116.30304631999999|39.9885014|20.0|45.0|15.0|0.7|0.6|0.5
59号楼|116.30306527333333|39.98816177333333|20.0|45.0|15.0|0.7|0.6|0.5
53号楼|116.3035895888889|39.989059866666665|20.0|45.0|15.0|0.7|0.6|0.5
54号楼|116.3034429909091|39.988734300000004|20.0|45.0|15.0|0.7|0.6|0.5
56号楼|116.30344118000001|39.988327850000005|20.0|45.0|15.0|0.7|0.6|0.5
62号楼|116.30257796000001|39.9880714|20.0|45.0|15.0|0.7|0.6|0.5
61号楼|116.30221727777777|39.988086144444445|20.0|45.0|15.0|0.7|0.6|0.5
50号楼|116.30181980909092|39.98895218181818|20.0|45.0|15.0|0.7|0.6|0.5
北京大学城市与环境学院|116.3099179|39.99475726666667|40.0|55.0|30.0|0.6|0.7|0.6
北京大学建筑与景观设计学院|116.30982469333334|39.995546940000004|35.0|45.0|25.0|0.6|0.7|0.6
朗润园11号楼|116.30557612|39.9977499|15.0|35.0|15.0|0.7|0.6|0.5
朗润园10号楼|116.30563079999999|39.9974523|15.0|35.0|15.0|0.7|0.6|0.5
朗润园9号楼|116.30568836|39.99713488|15.0|35.0|15.0|0.7|0.6|0.5
朗润园8号楼|116.30574016|39.9968284|15.0|35.0|15.0|0.7|0.6|0.5
朗润园13号楼|116.30358262|39.997657319999995|15.0|35.0|15.0|0.7|0.6|0.5
科维理天文与天体物理研究所|116.3047330888889|39.99790981111111|30.0|40.0|15.0|0.6|0.6|0.7
西46楼|116.30971847999999|39.997646100000004|20.0|50.0|24.0|0.7|0.6|0.5
西47楼|116.30998193999999|39.99731344|20.0|50.0|24.0|0.7|0.6|0.5
哲学系（宗教学系）|116.30607571666667|39.99524606666667|30.0|45.0|20.0|0.6|0.6|0.6
中国语言文学系|116.30589881666667|39.99617765|30.0|45.0|20.0|0.6|0.6|0.6
历史学系|116.30517970625|39.9961493625|30.0|45.0|20.0|0.6|0.6|0.6
李兆基人文学苑|116.30548771333333|39.99576767333333|40.0|50.0|18.0|0.7|0.6|0.5
李兆基人文学苑|116.30544814210526|39.995582999999996|40.0|50.0|18.0|0.7|0.6|0.5
李兆基人文学苑|116.30555333888888|39.99537188888889|40.0|50.0|18.0|0.7|0.6|0.5
46楼|116.2996809888889|39.987461555555555|20.0|50.0|24.0|0.7|0.6|0.5
47楼|116.29976678888889|39.987031099999996|20.0|50.0|24.0|0.7|0.6|0.5
48楼|116.29979607777778|39.98666105555556|20.0|50.0|24.0|0.7|0.6|0.5
中水站|116.29862997000001|39.995124419999996|20.0|25.0|15.0|0.5|0.5|0.6
考古文博学院|116.30034610000001|39.995451554545454|35.0|45.0|22.0|0.7|0.5|0.4
实验动物中心B座|116.300484525|39.99597779166667|30.0|40.0|20.0|0.6|0.6|0.6
外国语学院|116.30651947777778|39.99680131111111|35.0|50.0|22.0|0.6|0.6|0.6
2 号楼|116.29753285172413|39.99025855517242|20.0|45.0|18.0|0.7|0.6|0.5
校景亭|116.30052014|39.994984720000005|10.0|10.0|12.0|0.7|0.5|0.4
3 号楼|116.29745111111112|39.990679418518525|20.0|45.0|18.0|0.7|0.6|0.5
1 号楼|116.29753144800002|39.98907884|20.0|45.0|18.0|0.7|0.6|0.5
4 号楼|116.297422825|39.99106002916667|20.0|45.0|18.0|0.7|0.6|0.5
实验动物中心A座|116.299714975|39.9959508375|30.0|40.0|20.0|0.6|0.6|0.6
李兆基人文学苑|116.30537771666667|39.995132250000005|40.0|50.0|18.0|0.7|0.6|0.5
北大-港理工中国社会工作研究中心（恩善苑）|116.30146074545455|39.99628267272727|25.0|35.0|15.0|0.6|0.5|0.4
章桂堂|116.30462378|39.992316779999996|15.0|20.0|12.0|0.6|0.5|0.4
亨利楼|116.30500344|39.9922655|20.0|30.0|15.0|0.6|0.5|0.4
北大科技园|116.30837258888889|39.99635804444445|50.0|70.0|40.0|0.5|0.5|0.6
北京大学南门|116.3054565|39.98527|10.0|25.0|12.0|0.8|0.3|0.3
西南门|116.2995189|39.9864392|10.0|25.0|12.0|0.8|0.3|0.3
东门|116.3093076|39.9907995|10.0|25.0|12.0|0.8|0.3|0.3
东侧门|116.3092297|39.991764|10.0|25.0|12.0|0.8|0.3|0.3
东南门|116.3094367|39.9887974|10.0|25.0|12.0|0.8|0.3|0.3